{
"type": "FeatureCollection",
"crs": { "type": "name", "properties": { "name": "urn:ogc:def:crs:OGC:1.3:CRS84" } },
"features": [
{ "type": "Feature", "properties": { "OBJECTID": 1, "NAME": "CRYSTAL SPRINGS UPLANDS HIGH SCHOOL", "ADDRESS": "400 Uplands Dr.\nHILLSBOROUGH, CA 94010" }, "geometry": { "type": "Point", "coordinates": [ -122.3364465, 37.55776505 ] } },
{ "type": "Feature", "properties": { "OBJECTID": 2, "NAME": "ARAGON HIGH SCHOOL", "ADDRESS": "900 Alameda de Las Pulgas\nSAN MATEO, CA 94402" }, "geometry": { "type": "Point", "coordinates": [ -122.32909220000001, 37.55179534 ] } },
{ "type": "Feature", "properties": { "OBJECTID": 3, "NAME": "FIESTA GARDENS INTERNATIONAL ELEMENTARY SCHOOL", "ADDRESS": "1001 Bermuda Dr.\nSAN MATEO, CA 94403" }, "geometry": { "type": "Point", "coordinates": [ -122.2994904, 37.55124291 ] } },
{ "type": "Feature", "properties": { "OBJECTID": 4, "NAME": "WEST HILLSBOROUGH ELEMENTARY SCHOOL", "ADDRESS": "376 Barbara Way\nHILLSBOROUGH, CA 94010" }, "geometry": { "type": "Point", "coordinates": [ -122.3680238, 37.54929342 ] } },
{ "type": "Feature", "properties": { "OBJECTID": 5, "NAME": "BOREL MIDDLE SCHOOL", "ADDRESS": "425 Barneson Ave.\nSAN MATEO, CA 94402" }, "geometry": { "type": "Point", "coordinates": [ -122.3224725, 37.55021208 ] } },
{ "type": "Feature", "properties": { "OBJECTID": 6, "NAME": "FARALLONE VIEW ELEMENTARY SCHOOL", "ADDRESS": "1100 Le Conte Ave\nMONTARA 94037" }, "geometry": { "type": "Point", "coordinates": [ -122.5082388, 37.54390091 ] } },
{ "type": "Feature", "properties": { "OBJECTID": 7, "NAME": "FOSTER CITY ELEMENTARY SCHOOL", "ADDRESS": "461 Beach Park Blvd.\nFOSTER CITY, CA 94404" }, "geometry": { "type": "Point", "coordinates": [ -122.2732555, 37.54545228 ] } },
{ "type": "Feature", "properties": { "OBJECTID": 8, "NAME": "JUNIPERO SERRA HIGH SCHOOL", "ADDRESS": "451 W 20th Ave\nSAN MATEO, CA 94403" }, "geometry": { "type": "Point", "coordinates": [ -122.3174586, 37.5463482 ] } },
{ "type": "Feature", "properties": { "OBJECTID": 9, "NAME": "WASHINGTON ELEMENTARY SCHOOL", "ADDRESS": "801 Howard Ave.\nBURLINGAME, CA 94010" }, "geometry": { "type": "Point", "coordinates": [ -122.340293, 37.58094835 ] } },
{ "type": "Feature", "properties": { "OBJECTID": 10, "NAME": "SAN MATEO HIGH SCHOOL", "ADDRESS": "506 North Delaware St.\nSAN MATEO, CA 94401" }, "geometry": { "type": "Point", "coordinates": [ -122.3301921, 37.57646859 ] } },
{ "type": "Feature", "properties": { "OBJECTID": 11, "NAME": "PARKSIDE INTERMEDIATE SCHOOL", "ADDRESS": "1801 Niles Ave.\nSAN BRUNO, CA 94066" }, "geometry": { "type": "Point", "coordinates": [ -122.41988670000001, 37.61627874 ] } },
{ "type": "Feature", "properties": { "OBJECTID": 12, "NAME": "BURLINGAME HIGH SCHOOL", "ADDRESS": "1 Mangini Way\nBURLINGAME, CA 94010" }, "geometry": { "type": "Point", "coordinates": [ -122.3467556, 37.58210994 ] } },
{ "type": "Feature", "properties": { "OBJECTID": 13, "NAME": "FERNANDO RIVERA INTERMEDIATE SCHOOL", "ADDRESS": "1255 Southgate Ave.\nDALY CITY, CA 94015" }, "geometry": { "type": "Point", "coordinates": [ -122.4862222, 37.6764795 ] } },
{ "type": "Feature", "properties": { "OBJECTID": 14, "NAME": "FRANKLIN DELANO ROOSEVELT ELEMENTARY SCHOOL", "ADDRESS": "1200 Skyline Dr.\nDALY CITY, CA 94015" }, "geometry": { "type": "Point", "coordinates": [ -122.4860246, 37.66188699 ] } },
{ "type": "Feature", "properties": { "OBJECTID": 15, "NAME": "MARJORIE H. TOBIAS ELEMENTARY SCHOOL", "ADDRESS": "725 Southgate Ave.\nDALY CITY, CA 94015" }, "geometry": { "type": "Point", "coordinates": [ -122.4907979, 37.69099271 ] } },
{ "type": "Feature", "properties": { "OBJECTID": 17, "NAME": "THOMAS R. POLLICITA MIDDLE SCHOOL", "ADDRESS": "550 East Market St.\nDALY CITY, CA 94014" }, "geometry": { "type": "Point", "coordinates": [ -122.4595938, 37.69063183 ] } },
{ "type": "Feature", "properties": { "OBJECTID": 18, "NAME": "COLMA ELEMENTARY SCHOOL", "ADDRESS": "444 E Market St\nDALY CITY, CA 94014" }, "geometry": { "type": "Point", "coordinates": [ -122.4605488, 37.69020187 ] } },
{ "type": "Feature", "properties": { "OBJECTID": 19, "NAME": "WESTBOROUGH MIDDLE SCHOOL", "ADDRESS": "2570 Westborough Blvd.\nSOUTH SAN FRANCISCO, CA 94080" }, "geometry": { "type": "Point", "coordinates": [ -122.4607644, 37.64328539 ] } },
{ "type": "Feature", "properties": { "OBJECTID": 20, "NAME": "DANIEL WEBSTER ELEMENTARY SCHOOL", "ADDRESS": "425 El Dorado Dr.\nDALY CITY, CA 94015" }, "geometry": { "type": "Point", "coordinates": [ -122.478024, 37.67769779 ] } },
{ "type": "Feature", "properties": { "OBJECTID": 21, "NAME": "MILLS MONTESSORI SCHHOL ", "ADDRESS": "1400 Hillside Blvd\nSOUTH SAN FRANCISCO, CA 94080" }, "geometry": { "type": "Point", "coordinates": [ -122.4242825, 37.66837005 ] } },
{ "type": "Feature", "properties": { "OBJECTID": 22, "NAME": "EL CAMINO HIGH SCHOOL", "ADDRESS": "1320 Mission Rd.\nSOUTH SAN FRANCISCO, CA 94080" }, "geometry": { "type": "Point", "coordinates": [ -122.4428605, 37.66437885 ] } },
{ "type": "Feature", "properties": { "OBJECTID": 24, "NAME": "SUNSHINE GARDENS ELEMENTARY SCHOOL", "ADDRESS": "1200 Miller Ave.\nSOUTH SAN FRANCISCO, CA 94080" }, "geometry": { "type": "Point", "coordinates": [ -122.4370042, 37.66510239 ] } },
{ "type": "Feature", "properties": { "OBJECTID": 25, "NAME": "MARTIN ELEMENTARY SCHOOL", "ADDRESS": "35 School St.\nSOUTH SAN FRANCISCO, CA 94080" }, "geometry": { "type": "Point", "coordinates": [ -122.4100589, 37.66278524 ] } },
{ "type": "Feature", "properties": { "OBJECTID": 26, "NAME": "SAINT ROBERT ELEMENTARY SCHOOL", "ADDRESS": "345 Oak Avenue\nSAN BRUNO, CA 94066" }, "geometry": { "type": "Point", "coordinates": [ -122.4156284, 37.61722721 ] } },
{ "type": "Feature", "properties": { "OBJECTID": 27, "NAME": "SAINT GREGORY ELEMENTARY SCHOOL", "ADDRESS": "2701 Hacienda St\nSAN MATEO, CA 94403" }, "geometry": { "type": "Point", "coordinates": [ -122.3084094, 37.54063358 ] } },
{ "type": "Feature", "properties": { "OBJECTID": 28, "NAME": "IMMACULATE HEART OF MARY ELEMENTARY SCHOOL", "ADDRESS": "1000 Alameda de las Pulgas\nBELMONT, CA 94002" }, "geometry": { "type": "Point", "coordinates": [ -122.2943231, 37.51200111 ] } },
{ "type": "Feature", "properties": { "OBJECTID": 29, "NAME": "PONDEROSA ELEMENTARY SCHOOL", "ADDRESS": "295 Ponderosa Rd.\nSOUTH SAN FRANCISCO, CA 94080" }, "geometry": { "type": "Point", "coordinates": [ -122.4335801, 37.6465073 ] } },
{ "type": "Feature", "properties": { "OBJECTID": 30, "NAME": "SOUTH SAN FRANCISCO HIGH SCHOOL", "ADDRESS": "400 B St.\nSOUTH SAN FRANCISCO, CA 94080" }, "geometry": { "type": "Point", "coordinates": [ -122.4282611, 37.64978695 ] } },
{ "type": "Feature", "properties": { "OBJECTID": 31, "NAME": "WHITE OAKS ELEMENTARY SCHOOL", "ADDRESS": "1901 White Oak Way\nSAN CARLOS, CA 94070" }, "geometry": { "type": "Point", "coordinates": [ -122.2532674, 37.49211956 ] } },
{ "type": "Feature", "properties": { "OBJECTID": 32, "NAME": "ALPHA BEACON CHRISTIAN SCHOOL", "ADDRESS": "525 W. 42nd Ave.\nSAN MATEO, CA 94403" }, "geometry": { "type": "Point", "coordinates": [ -122.3033805, 37.52465517 ] } },
{ "type": "Feature", "properties": { "OBJECTID": 33, "NAME": "ARUNDEL ELEMENTARY SCHOOL", "ADDRESS": "200 ARUNDEL RD.\nSAN CARLOS, CA 94070" }, "geometry": { "type": "Point", "coordinates": [ -122.2749133, 37.50347594 ] } },
{ "type": "Feature", "properties": { "OBJECTID": 34, "NAME": "GREEN OAKS ACADEMY", "ADDRESS": "2450 Ralmar Street\nEAST PALO ALTO, CA 94303" }, "geometry": { "type": "Point", "coordinates": [ -122.1470384, 37.47384553 ] } },
{ "type": "Feature", "properties": { "OBJECTID": 35, "NAME": "REDWOOD SHORES ELEMENTARY SCHOOL", "ADDRESS": "225 Shearwater Parkway\n94065" }, "geometry": { "type": "Point", "coordinates": [ -122.2458935, 37.54355754 ] } },
{ "type": "Feature", "properties": { "OBJECTID": 36, "NAME": "MCKINLEY ELEMENTARY SCHOOL", "ADDRESS": "701 Paloma Ave.\nBURLINGAME, CA 94010" }, "geometry": { "type": "Point", "coordinates": [ -122.3559029, 37.57906244 ] } },
{ "type": "Feature", "properties": { "OBJECTID": 37, "NAME": "ROOSEVELT ELEMENTARY SCHOOL", "ADDRESS": "1151 Vancouver Ave.\nBURLINGAME, CA 94010" }, "geometry": { "type": "Point", "coordinates": [ -122.3690488, 37.57962466 ] } },
{ "type": "Feature", "properties": { "OBJECTID": 38, "NAME": "GEORGE HALL ELEMENTARY SCHOOL", "ADDRESS": "130 San Miguel Way\nSAN MATEO, CA 94403" }, "geometry": { "type": "Point", "coordinates": [ -122.2913396, 37.53767357 ] } },
{ "type": "Feature", "properties": { "OBJECTID": 39, "NAME": "BAYWOOD ELEMENTARY SCHOOL", "ADDRESS": "600 Alameda de Las Pulgas\nSAN MATEO, CA 94402" }, "geometry": { "type": "Point", "coordinates": [ -122.3325251, 37.55322739 ] } },
{ "type": "Feature", "properties": { "OBJECTID": 40, "NAME": "AUDUBON ELEMENTARY SCHOOL", "ADDRESS": "841 Gull Ave.\nFOSTER CITY, CA 94404" }, "geometry": { "type": "Point", "coordinates": [ -122.25918110000001, 37.56707445 ] } },
{ "type": "Feature", "properties": { "OBJECTID": 41, "NAME": "THE BAYSIDE S.T.E.M. ACADEMY", "ADDRESS": "2025 Kehoe Ave.\nSAN MATEO, CA 94403" }, "geometry": { "type": "Point", "coordinates": [ -122.2959498, 37.56558395 ] } },
{ "type": "Feature", "properties": { "OBJECTID": 42, "NAME": "COLLEGE OF SAN MATEO", "ADDRESS": "1700 W. Hillsdale Blvd\nSAN MATEO, CA 94402" }, "geometry": { "type": "Point", "coordinates": [ -122.3352022, 37.53183506 ] } },
{ "type": "Feature", "properties": { "OBJECTID": 43, "NAME": "SOUTH HILLSBOROUGH ELEMENTARY SCHOOL", "ADDRESS": "303 El Cerrito Ave.\nHILLSBOROUGH, CA 94010" }, "geometry": { "type": "Point", "coordinates": [ -122.3375829, 37.56269983 ] } },
{ "type": "Feature", "properties": { "OBJECTID": 44, "NAME": "SUNNYBRAE ELEMENTARY SCHOOL", "ADDRESS": "1031 South Delaware St.\nSAN MATEO, CA 94402" }, "geometry": { "type": "Point", "coordinates": [ -122.3138265, 37.56149294 ] } },
{ "type": "Feature", "properties": { "OBJECTID": 45, "NAME": "NESBIT ELEMENTARY SCHOOL", "ADDRESS": "500 Biddulph Way\nBELMONT, CA 94002" }, "geometry": { "type": "Point", "coordinates": [ -122.2744907, 37.5257648 ] } },
{ "type": "Feature", "properties": { "OBJECTID": 46, "NAME": "CLIFFORD SCHOOL", "ADDRESS": "225 Clifford Ave.\nREDWOOD CITY, CA 94062" }, "geometry": { "type": "Point", "coordinates": [ -122.2629191, 37.4814958 ] } },
{ "type": "Feature", "properties": { "OBJECTID": 47, "NAME": "HOOVER ELEMENTARY SCHOOL", "ADDRESS": "701 Charter St.\nREDWOOD CITY, CA 94061" }, "geometry": { "type": "Point", "coordinates": [ -122.21427370000001, 37.48215248 ] } },
{ "type": "Feature", "properties": { "OBJECTID": 48, "NAME": "OUR LADY OF ANGELS ELEMENTARY SCHOOL", "ADDRESS": "1328 Cabrillo Ave.\nBURLINGAME, CA 94010" }, "geometry": { "type": "Point", "coordinates": [ -122.3718992, 37.58438865 ] } },
{ "type": "Feature", "properties": { "OBJECTID": 49, "NAME": "TAFT ELEMENTARY SCHOOL", "ADDRESS": "903 10th Avenue\nREDWOOD CITY, CA 94063" }, "geometry": { "type": "Point", "coordinates": [ -122.193999, 37.47999757 ] } },
{ "type": "Feature", "properties": { "OBJECTID": 50, "NAME": "REDEEMER LUTHERAN ELEMENTARY SCHOOL", "ADDRESS": "468 Grand St.\nREDWOOD CITY, CA 94062" }, "geometry": { "type": "Point", "coordinates": [ -122.2373951, 37.47946718 ] } },
{ "type": "Feature", "properties": { "OBJECTID": 51, "NAME": "GOOD SHEPHERD ELEMENTARY SCHOOL", "ADDRESS": "909 Oceana Blvd.\nPACIFICA, CA 94044" }, "geometry": { "type": "Point", "coordinates": [ -122.4901632, 37.64048914 ] } },
{ "type": "Feature", "properties": { "OBJECTID": 52, "NAME": "CARLMONT HIGH SCHOOL", "ADDRESS": "1400 Alameda de Las Pulgas\nBELMONT, CA 94002" }, "geometry": { "type": "Point", "coordinates": [ -122.2880911, 37.50715522 ] } },
{ "type": "Feature", "properties": { "OBJECTID": 53, "NAME": "PARKWAY HEIGHTS MIDDLE SCHOOL", "ADDRESS": "825 Parkway Ave.\nSan Francisco, CA 94080" }, "geometry": { "type": "Point", "coordinates": [ -122.4280489, 37.66352625 ] } },
{ "type": "Feature", "properties": { "OBJECTID": 54, "NAME": "MATER DOLOROSA ELEMENTARY SCHOOL", "ADDRESS": "1040 Miller Avenue\nSOUTH SAN FRANCISCO, CA 94080" }, "geometry": { "type": "Point", "coordinates": [ -122.4339313, 37.66194553 ] } },
{ "type": "Feature", "properties": { "OBJECTID": 55, "NAME": "FAIRMONT ELEMENTARY SCHOOL", "ADDRESS": "290 Edgewood Dr.\nPACIFICA, CA 94044" }, "geometry": { "type": "Point", "coordinates": [ -122.4814059, 37.6611979 ] } },
{ "type": "Feature", "properties": { "OBJECTID": 56, "NAME": "JUNIPERO SERRA ELEMENTARY SCHOOL", "ADDRESS": "151 Victoria St.\nDALY CITY, CA 94015" }, "geometry": { "type": "Point", "coordinates": [ -122.4698488, 37.66102726 ] } },
{ "type": "Feature", "properties": { "OBJECTID": 57, "NAME": "SEA CREST SCHOOL", "ADDRESS": "901 Arnold Way\nHALF MOON BAY, CA 94019" }, "geometry": { "type": "Point", "coordinates": [ -122.4272555, 37.45622299 ] } },
{ "type": "Feature", "properties": { "OBJECTID": 65, "NAME": "WESTMOOR HIGH SCHOOL", "ADDRESS": "131 Westmoor Ave.\nDALY CITY, CA 94015" }, "geometry": { "type": "Point", "coordinates": [ -122.4847616, 37.68347022 ] } },
{ "type": "Feature", "properties": { "OBJECTID": 67, "NAME": "SUNSET RIDGE ELEMENTARY SCHOOL", "ADDRESS": "340 Inverness Dr.\nPACIFICA, CA 94044" }, "geometry": { "type": "Point", "coordinates": [ -122.4790376, 37.65318274 ] } },
{ "type": "Feature", "properties": { "OBJECTID": 68, "NAME": "SKYLINE ELEMENTARY SCHOOL", "ADDRESS": "55 Christen Ave.\nDALY CITY, CA 94015" }, "geometry": { "type": "Point", "coordinates": [ -122.4666094, 37.65157403 ] } },
{ "type": "Feature", "properties": { "OBJECTID": 69, "NAME": "BADEN HIGH SCHOOL (CONTINUATION)", "ADDRESS": "825 Southwood Dr.\nSOUTH SAN FRANCISCO, CA 94080" }, "geometry": { "type": "Point", "coordinates": [ -122.4350987, 37.64965568 ] } },
{ "type": "Feature", "properties": { "OBJECTID": 70, "NAME": "LOS CERRITOS ELEMENTARY SCHOOL", "ADDRESS": "210 West Orange Ave.\nSOUTH SAN FRANCISCO, CA 94080" }, "geometry": { "type": "Point", "coordinates": [ -122.4273985, 37.65149373 ] } },
{ "type": "Feature", "properties": { "OBJECTID": 71, "NAME": "ALLEN ELEMENTARY SCHOOL", "ADDRESS": "875 West Angus Ave.\nSAN BRUNO, CA 94066" }, "geometry": { "type": "Point", "coordinates": [ -122.4164363, 37.62477151 ] } },
{ "type": "Feature", "properties": { "OBJECTID": 72, "NAME": "HIGHLANDS CHRISTIAN SCHOOLS", "ADDRESS": "1900 Monterey Dr.\nSAN BRUNO, CA 94066" }, "geometry": { "type": "Point", "coordinates": [ -122.44795310000001, 37.62195178 ] } },
{ "type": "Feature", "properties": { "OBJECTID": 73, "NAME": "VACANT", "ADDRESS": "20 Allemany St.\nDALY CITY, CA 94014" }, "geometry": { "type": "Point", "coordinates": [ -122.4677387, 37.6894806 ] } },
{ "type": "Feature", "properties": { "OBJECTID": 76, "NAME": "AL-HUDA ISLAMIC SCHOOL", "ADDRESS": "340 Alta Vista Dr.\nSOUTH SAN FRANCISCO, CA 94080" }, "geometry": { "type": "Point", "coordinates": [ -122.4340394, 37.64063701 ] } },
{ "type": "Feature", "properties": { "OBJECTID": 77, "NAME": "SEQUOIA HIGH SCHOOL", "ADDRESS": "1201 Brewster Ave.\nREDWOOD CITY, CA 94062" }, "geometry": { "type": "Point", "coordinates": [ -122.2373899, 37.48601573 ] } },
{ "type": "Feature", "properties": { "OBJECTID": 78, "NAME": "PENINSULA CHRISTIAN SCHOOL", "ADDRESS": "1305 Middlefield Rd.\nREDWOOD CITY, CA 94063" }, "geometry": { "type": "Point", "coordinates": [ -122.22472260000001, 37.48363802 ] } },
{ "type": "Feature", "properties": { "OBJECTID": 79, "NAME": "HILLSDALE HIGH SCHOOL", "ADDRESS": "3115 Del Monte St.\nSAN MATEO, CA 94403" }, "geometry": { "type": "Point", "coordinates": [ -122.3150256, 37.5317745 ] } },
{ "type": "Feature", "properties": { "OBJECTID": 80, "NAME": "GRACE LUTHERAN SCHOOL", "ADDRESS": "2825 Alameda De Las Pulgas\nSAN MATEO, CA 94403" }, "geometry": { "type": "Point", "coordinates": [ -122.3118072, 37.53759054 ] } },
{ "type": "Feature", "properties": { "OBJECTID": 81, "NAME": "WOODSIDE PRIORY SCHOOL", "ADDRESS": "302 Portola Road\nPORTOLA VALLEY, CA 94028" }, "geometry": { "type": "Point", "coordinates": [ -122.2152327, 37.37475921 ] } },
{ "type": "Feature", "properties": { "OBJECTID": 82, "NAME": "JAMES FLOOD ELEMENTARY SCHOOL", "ADDRESS": "2037 Pulgas Ave.\nEAST PALO ALTO, CA 94025" }, "geometry": { "type": "Point", "coordinates": [ -122.1301616, 37.46183339 ] } },
{ "type": "Feature", "properties": { "OBJECTID": 83, "NAME": "EL GRANADA ELEMENTARY SCHOOL", "ADDRESS": "400 Santiago St.\nHalf Moon Bay, CA 94018" }, "geometry": { "type": "Point", "coordinates": [ -122.4645338, 37.49994615 ] } },
{ "type": "Feature", "properties": { "OBJECTID": 84, "NAME": "HIGHLANDS ELEMENTARY SCHOOL", "ADDRESS": "2320 Newport St.\nSAN MATEO, CA 94402" }, "geometry": { "type": "Point", "coordinates": [ -122.3494512, 37.52366951 ] } },
{ "type": "Feature", "properties": { "OBJECTID": 85, "NAME": "CENTRAL ELEMENTARY SCHOOL", "ADDRESS": "525 Middle Rd.\nBELMONT, CA 94002" }, "geometry": { "type": "Point", "coordinates": [ -122.28235170000001, 37.52370149 ] } },
{ "type": "Feature", "properties": { "OBJECTID": 86, "NAME": "CAREY ELEMENTARY SCHOOL", "ADDRESS": "1 Carey School Ln.\nSAN MATEO, CA 94403" }, "geometry": { "type": "Point", "coordinates": [ -122.3187525, 37.54472717 ] } },
{ "type": "Feature", "properties": { "OBJECTID": 87, "NAME": "BERESFORD ELEMENTARY SCHOOL", "ADDRESS": "300 28th Avenue\nSAN MATEO, CA 94403" }, "geometry": { "type": "Point", "coordinates": [ -122.3091893, 37.53914084 ] } },
{ "type": "Feature", "properties": { "OBJECTID": 88, "NAME": "MEADOW HEIGHTS ELEMENTARY SCHOOL", "ADDRESS": "2619 Dolores St.\nSAN MATEO, CA 94403" }, "geometry": { "type": "Point", "coordinates": [ -122.3171787, 37.53901274 ] } },
{ "type": "Feature", "properties": { "OBJECTID": 89, "NAME": "LAUREL ELEMENTARY SCHOOL", "ADDRESS": "316 36th Ave.\nSAN MATEO, CA 94403" }, "geometry": { "type": "Point", "coordinates": [ -122.3036508, 37.53171991 ] } },
{ "type": "Feature", "properties": { "OBJECTID": 90, "NAME": "ABBOTT MIDDLE SCHOOL", "ADDRESS": "600 36th Ave.\nSAN MATEO, CA 94403" }, "geometry": { "type": "Point", "coordinates": [ -122.3087046, 37.5296465 ] } },
{ "type": "Feature", "properties": { "OBJECTID": 91, "NAME": "CHARLES ARMSTRONG SCHOOL", "ADDRESS": "1405 Solana Dr.\nBELMONT, CA 94002" }, "geometry": { "type": "Point", "coordinates": [ -122.2842764, 37.51126221 ] } },
{ "type": "Feature", "properties": { "OBJECTID": 92, "NAME": "STANBRIDGE ACADEMY", "ADDRESS": "515 E Poplar Ave.\nSAN MATEO, CA 94401" }, "geometry": { "type": "Point", "coordinates": [ -122.3300347, 37.57489759 ] } },
{ "type": "Feature", "properties": { "OBJECTID": 93, "NAME": "CENTRAL MIDDLE SCHOOL", "ADDRESS": "828 Chestnut St.\nSAN CARLOS, CA 94070" }, "geometry": { "type": "Point", "coordinates": [ -122.2611158, 37.50194346 ] } },
{ "type": "Feature", "properties": { "OBJECTID": 94, "NAME": "OUR LADY OF MOUNT CARMEL SCHOOL", "ADDRESS": "301 Grand St.\nREDWOOD CITY, CA 94062" }, "geometry": { "type": "Point", "coordinates": [ -122.2394953, 37.48128779 ] } },
{ "type": "Feature", "properties": { "OBJECTID": 95, "NAME": "ALMA HEIGHTS CHRISTIAN ACADEMY", "ADDRESS": "1295 Seville Dr.\nPACIFICA, CA 94044" }, "geometry": { "type": "Point", "coordinates": [ -122.4937108, 37.58839664 ] } },
{ "type": "Feature", "properties": { "OBJECTID": 96, "NAME": "SAINT CATHERINE OF SIENA ELEMENTARY SCHOOL", "ADDRESS": "1300 Bayswater Ave.\nBURLINGAME, CA 94010" }, "geometry": { "type": "Point", "coordinates": [ -122.3443511, 37.57598584 ] } },
{ "type": "Feature", "properties": { "OBJECTID": 97, "NAME": "HEATHER ELEMENTARY SCHOOL", "ADDRESS": "2757 Melendy Dr\nSAN CARLOS, CA 94070" }, "geometry": { "type": "Point", "coordinates": [ -122.275786, 37.49233264 ] } },
{ "type": "Feature", "properties": { "OBJECTID": 98, "NAME": "ORION ALTERNATIVE ELEMENTARY SCHOOL", "ADDRESS": "815 Allerton St.\nREDWOOD CITY, CA 94063" }, "geometry": { "type": "Point", "coordinates": [ -122.2335396, 37.49022503 ] } },
{ "type": "Feature", "properties": { "OBJECTID": 99, "NAME": "OCEAN SHORE ELEMENTARY SCHOOL", "ADDRESS": "411 Oceana Blvd.\nPACIFICA, CA 94044" }, "geometry": { "type": "Point", "coordinates": [ -122.4900516, 37.65114445 ] } },
{ "type": "Feature", "properties": { "OBJECTID": 100, "NAME": "CABRILLO ELEMENTARY SCHOOL", "ADDRESS": "601 Crespi Dr.\nPACIFICA, CA 94044" }, "geometry": { "type": "Point", "coordinates": [ -122.4978624, 37.59811424 ] } },
{ "type": "Feature", "properties": { "OBJECTID": 101, "NAME": "VALLEMAR ELEMENTARY SCHOOL", "ADDRESS": "377 Reina del Mar Ave.\nPACIFICA, CA 94044" }, "geometry": { "type": "Point", "coordinates": [ -122.484735, 37.61372545 ] } },
{ "type": "Feature", "properties": { "OBJECTID": 102, "NAME": "PENINSULA HIGH SCHOOL (CONTINUATION)", "ADDRESS": "300 Piedmont Ave.\nSAN BRUNO, CA 94066" }, "geometry": { "type": "Point", "coordinates": [ -122.4287323, 37.61060174 ] } },
{ "type": "Feature", "properties": { "OBJECTID": 103, "NAME": "EL CRYSTAL ELEMENTARY SCHOOL", "ADDRESS": "201 Balboa Way\nSAN BRUNO, CA 94066" }, "geometry": { "type": "Point", "coordinates": [ -122.4125092, 37.6138227 ] } },
{ "type": "Feature", "properties": { "OBJECTID": 104, "NAME": "JOHN MUIR ELEMENTARY SCHOOL", "ADDRESS": "130 Cambridge Ln.\nSAN BRUNO, CA 94066" }, "geometry": { "type": "Point", "coordinates": [ -122.4353694, 37.6129932 ] } },
{ "type": "Feature", "properties": { "OBJECTID": 105, "NAME": "ST DUNSTON PARISH SCHOOL", "ADDRESS": "1150 Magnolia Ave.\nMILLBRAE, CA 94030" }, "geometry": { "type": "Point", "coordinates": [ -122.4002637, 37.60631289 ] } },
{ "type": "Feature", "properties": { "OBJECTID": 106, "NAME": "CAADA MIDDLE COLLEGE HIGH SCHOOL", "ADDRESS": "4200 Farm Hill Blvd.\nREDWOOD CITY, CA 94061" }, "geometry": { "type": "Point", "coordinates": [ -122.2603814, 37.44743494 ] } },
{ "type": "Feature", "properties": { "OBJECTID": 107, "NAME": "INGRID B. LACY MIDDLE SCHOOL", "ADDRESS": "1427 Palmetto Ave.\nor any location anymore, CA 94044" }, "geometry": { "type": "Point", "coordinates": [ -122.49222090000001, 37.63749363 ] } },
{ "type": "Feature", "properties": { "OBJECTID": 108, "NAME": "PACIFIC HEIGHTS MIDDLE SCHOOL", "ADDRESS": "3791 Pacific Heights Blvd\nSAN BRUNO, CA 94066" }, "geometry": { "type": "Point", "coordinates": [ -122.4670948, 37.63256988 ] } },
{ "type": "Feature", "properties": { "OBJECTID": 109, "NAME": "ROLLINGWOOD ELEMENTARY SCHOOL", "ADDRESS": "2500 Cottonwood Dr.\nSAN BRUNO, CA 94066" }, "geometry": { "type": "Point", "coordinates": [ -122.44391210000001, 37.6295683 ] } },
{ "type": "Feature", "properties": { "OBJECTID": 110, "NAME": "BURI BURI ELEMENTARY SCHOOL", "ADDRESS": "120 El Campo Dr.\nSOUTH SAN FRANCISCO, CA 94080" }, "geometry": { "type": "Point", "coordinates": [ -122.4447963, 37.65620201 ] } },
{ "type": "Feature", "properties": { "OBJECTID": 111, "NAME": "CRESTMOOR ELEMENTARY SCHOOL", "ADDRESS": "2322 Crestmoor Dr.\nSAN BRUNO, CA 94066" }, "geometry": { "type": "Point", "coordinates": [ -122.4340794, 37.62381546 ] } },
{ "type": "Feature", "properties": { "OBJECTID": 112, "NAME": "NORTH SHOREVIEW ELEMENTARY SCHOOL", "ADDRESS": "1301 Cypress Ave.\nSAN MATEO, CA 94401" }, "geometry": { "type": "Point", "coordinates": [ -122.31646050000001, 37.57444289 ] } },
{ "type": "Feature", "properties": { "OBJECTID": 113, "NAME": "ST. TIMOTHY ELEMENTARY SCHOOL", "ADDRESS": "1515 Dolan Ave.\nSAN MATEO, CA 94401" }, "geometry": { "type": "Point", "coordinates": [ -122.3106997, 37.57516994 ] } },
{ "type": "Feature", "properties": { "OBJECTID": 114, "NAME": "ST. MATTHEWS CATHOLIC  SCHOOL", "ADDRESS": "910 S El Camino Real\nSAN MATEO, CA 94402" }, "geometry": { "type": "Point", "coordinates": [ -122.3214593, 37.55880659 ] } },
{ "type": "Feature", "properties": { "OBJECTID": 115, "NAME": "PARK ELEMENTARY SCHOOL", "ADDRESS": "161 Clark Drive\nSAN MATEO, CA 94402" }, "geometry": { "type": "Point", "coordinates": [ -122.343007, 37.56965264 ] } },
{ "type": "Feature", "properties": { "OBJECTID": 116, "NAME": "HORRALL ELEMENTARY SCHOOL", "ADDRESS": "949 Ocean View Ave.\nSAN MATEO, CA 94401" }, "geometry": { "type": "Point", "coordinates": [ -122.3030789, 37.56967774 ] } },
{ "type": "Feature", "properties": { "OBJECTID": 117, "NAME": "TERRA NOVA HIGH SCHOOL", "ADDRESS": "1450 Terra Nova Blvd.\nPACIFICA, CA 94404" }, "geometry": { "type": "Point", "coordinates": [ -122.4754991, 37.59164669 ] } },
{ "type": "Feature", "properties": { "OBJECTID": 118, "NAME": "ORTEGA ELEMENTARY SCHOOL", "ADDRESS": "1283 Terra Nova Blvd.\nPACIFICA, CA 94044" }, "geometry": { "type": "Point", "coordinates": [ -122.477457, 37.58789222 ] } },
{ "type": "Feature", "properties": { "OBJECTID": 119, "NAME": "ARBOR BAY SCHOOL", "ADDRESS": "1017 Cedar Street\nSAN CARLOS, CA 94070" }, "geometry": { "type": "Point", "coordinates": [ -122.2592457, 37.49719252 ] } },
{ "type": "Feature", "properties": { "OBJECTID": 120, "NAME": "ODDSTAD ELEMENTARY SCHOOL", "ADDRESS": "930 Oddstad Boulevard\nPACIFICA, CA 94044" }, "geometry": { "type": "Point", "coordinates": [ -122.4685896, 37.5872935 ] } },
{ "type": "Feature", "properties": { "OBJECTID": 121, "NAME": "FRANKLIN ELEMENTARY SCHOOL", "ADDRESS": "2385 Trousdale Dr.\nBURLINGAME, CA 94010" }, "geometry": { "type": "Point", "coordinates": [ -122.3889323, 37.589048 ] } },
{ "type": "Feature", "properties": { "OBJECTID": 122, "NAME": "BURLINGAME INTERMEDIATE SCHOOL", "ADDRESS": "1715 Quesada Way\nBURLINGAME, CA 94010" }, "geometry": { "type": "Point", "coordinates": [ -122.3853854, 37.58841488 ] } },
{ "type": "Feature", "properties": { "OBJECTID": 123, "NAME": "LINDA MAR EDUCATIONAL CENTER SCHOOL", "ADDRESS": "830 Rosita Rd.\nPACIFICA, CA 94044" }, "geometry": { "type": "Point", "coordinates": [ -122.4974157, 37.58570793 ] } },
{ "type": "Feature", "properties": { "OBJECTID": 124, "NAME": "LINCOLN ELEMENTARY SCHOOL", "ADDRESS": "1801 Devereux Dr.\nBURLINGAME, CA 94010" }, "geometry": { "type": "Point", "coordinates": [ -122.3791784, 37.58815543 ] } },
{ "type": "Feature", "properties": { "OBJECTID": 125, "NAME": "BREWER ISLAND ELEMENTARY SCHOOL", "ADDRESS": "1151 Polynesia Dr.\nFOSTER CITY, CA 94404" }, "geometry": { "type": "Point", "coordinates": [ -122.26120760000001, 37.56072372 ] } },
{ "type": "Feature", "properties": { "OBJECTID": 126, "NAME": "BOWDITCH MIDDLE SCHOOL", "ADDRESS": "1450 Tarpon St.\nFOSTER CITY, CA 94404" }, "geometry": { "type": "Point", "coordinates": [ -122.2488408, 37.56053761 ] } },
{ "type": "Feature", "properties": { "OBJECTID": 127, "NAME": "EVEREST PUBLIC HIGH SCHOOL", "ADDRESS": "455 5th Ave.\nRedwood City, CA 94063" }, "geometry": { "type": "Point", "coordinates": [ -122.2037778, 37.47342987 ] } },
{ "type": "Feature", "properties": { "OBJECTID": 128, "NAME": "ASPIRE EPA PHOENIX ACADEMY", "ADDRESS": "1039 Garden St.\nEAST PALO ALTO, CA 94303" }, "geometry": { "type": "Point", "coordinates": [ -122.1317993, 37.46697831 ] } },
{ "type": "Feature", "properties": { "OBJECTID": 130, "NAME": "TAYLOR MIDDLE SCHOOL", "ADDRESS": "850 Taylor Blvd.\nMILLBRAE, CA 94030" }, "geometry": { "type": "Point", "coordinates": [ -122.4009678, 37.59758216 ] } },
{ "type": "Feature", "properties": { "OBJECTID": 131, "NAME": "RALSTON INTERMEDIATE SCHOOL", "ADDRESS": "2675 Ralston Ave.\nBELMONT, CA 94002" }, "geometry": { "type": "Point", "coordinates": [ -122.3128761, 37.51227094 ] } },
{ "type": "Feature", "properties": { "OBJECTID": 132, "NAME": "FOX ELEMENTARY SCHOOL", "ADDRESS": "3100 Saint James Rd.\nBELMONT, CA 94002" }, "geometry": { "type": "Point", "coordinates": [ -122.3218114, 37.50763929 ] } },
{ "type": "Feature", "properties": { "OBJECTID": 133, "NAME": "BEECHWOOD ELEMENTARY SCHOOL", "ADDRESS": "50 Terminal Ave.\nMENLO PARK, CA 94025" }, "geometry": { "type": "Point", "coordinates": [ -122.16774270000001, 37.47879212 ] } },
{ "type": "Feature", "properties": { "OBJECTID": 134, "NAME": "RONALD MCNAIR ACADEMY MIDDLE SCHOOL", "ADDRESS": "2033 Pulgas Ave.\nEAST PALO ALTO, CA 94303" }, "geometry": { "type": "Point", "coordinates": [ -122.1301592, 37.46174047 ] } },
{ "type": "Feature", "properties": { "OBJECTID": 135, "NAME": "MERCY HIGH SCHOOL", "ADDRESS": "2750 Adeline Dr.\nBURLINGAME, CA 94010" }, "geometry": { "type": "Point", "coordinates": [ -122.3830682, 37.58094972 ] } },
{ "type": "Feature", "properties": { "OBJECTID": 136, "NAME": "JOHN F. KENNEDY MIDDLE SCHOOL", "ADDRESS": "2521 Goodwin Ave.\nREDWOOD CITY, CA 94061" }, "geometry": { "type": "Point", "coordinates": [ -122.2390407, 37.46008989 ] } },
{ "type": "Feature", "properties": { "OBJECTID": 137, "NAME": "ST. PATRICK'S SEMINARY AND UNIVERSITY", "ADDRESS": "320 Middlefield Rd.\nMENLO PARK, CA 94025" }, "geometry": { "type": "Point", "coordinates": [ -122.1674161, 37.45632897 ] } },
{ "type": "Feature", "properties": { "OBJECTID": 138, "NAME": "NATIVITY ELEMENTARY SCHOOL", "ADDRESS": "1250 Laurel St.\nMENLO PARK, CA 94025" }, "geometry": { "type": "Point", "coordinates": [ -122.1832154, 37.45776583 ] } },
{ "type": "Feature", "properties": { "OBJECTID": 139, "NAME": "HENRY FORD ELEMENTARY SCHOOL", "ADDRESS": "2498 Massachusetts Ave.\nREDWOOD CITY, CA 94061" }, "geometry": { "type": "Point", "coordinates": [ -122.2325926, 37.4565585 ] } },
{ "type": "Feature", "properties": { "OBJECTID": 140, "NAME": "MONTE VERDE ELEMENTARY SCHOOL", "ADDRESS": "2551 St. Cloud Dr.\nSAN BRUNO, CA 94066" }, "geometry": { "type": "Point", "coordinates": [ -122.4525333, 37.63667827 ] } },
{ "type": "Feature", "properties": { "OBJECTID": 141, "NAME": "LOMITA PARK ELEMENTARY SCHOOL", "ADDRESS": "200 Santa Helena Ave.\nSAN BRUNO, CA 94066" }, "geometry": { "type": "Point", "coordinates": [ -122.4009961, 37.61215566 ] } },
{ "type": "Feature", "properties": { "OBJECTID": 142, "NAME": "THOMAS EDISON ELEMENTARY SCHOOL", "ADDRESS": "1267 Southgate Ave.\nDALY CITY, CA 94015" }, "geometry": { "type": "Point", "coordinates": [ -122.4853437, 37.6761866 ] } },
{ "type": "Feature", "properties": { "OBJECTID": 143, "NAME": "CROCKER MIDDLE SCHOOL", "ADDRESS": "2600 Ralston Ave.\nHILLSBOROUGH, CA 94010" }, "geometry": { "type": "Point", "coordinates": [ -122.362667, 37.5662201 ] } },
{ "type": "Feature", "properties": { "OBJECTID": 144, "NAME": "SUMMIT PREPARATORY CHARTER HIGH SCHOOL", "ADDRESS": "890 Broadway St.\nREDWOOD CITY, CA 94063" }, "geometry": { "type": "Point", "coordinates": [ -122.2109448, 37.48659829 ] } },
{ "type": "Feature", "properties": { "OBJECTID": 145, "NAME": "SPECIAL EDUCATION SERVICES", "ADDRESS": "1290 Commodore Dr.\nSAN BRUNO, CA 94066" }, "geometry": { "type": "Point", "coordinates": [ -122.4266155, 37.63120909 ] } },
{ "type": "Feature", "properties": { "OBJECTID": 146, "NAME": "OCEANA HIGH SCHOOL", "ADDRESS": "401 Paloma Ave.\nPACIFICA, CA 94044" }, "geometry": { "type": "Point", "coordinates": [ -122.48513370000001, 37.63689008 ] } },
{ "type": "Feature", "properties": { "OBJECTID": 147, "NAME": "ST. MATTHEW'S EPISCOPAL DAY SCHOOL", "ADDRESS": "16 Baldwin Ave.\nSAN MATEO, CA 94401" }, "geometry": { "type": "Point", "coordinates": [ -122.3278747, 37.5654642 ] } },
{ "type": "Feature", "properties": { "OBJECTID": 148, "NAME": "CIPRIANI ELEMENTARY SCHOOL", "ADDRESS": "2525 Buena Vista\nBELMONT, CA 94002" }, "geometry": { "type": "Point", "coordinates": [ -122.3052877, 37.51682742 ] } },
{ "type": "Feature", "properties": { "OBJECTID": 149, "NAME": "EASTSIDE COLLEGE PREPARATORY SCHOOL", "ADDRESS": "1041 Myrtle Ave.\nEAST PALO ALTO, CA 94303" }, "geometry": { "type": "Point", "coordinates": [ -122.1328636, 37.46334109 ] } },
{ "type": "Feature", "properties": { "OBJECTID": 150, "NAME": "BELMONT OAKS ACADEMY", "ADDRESS": "2200 Carlmont Drive\nBELMONT, CA 94002" }, "geometry": { "type": "Point", "coordinates": [ -122.2971404, 37.51081474 ] } },
{ "type": "Feature", "properties": { "OBJECTID": 151, "NAME": "LA ENTRADA MIDDLE SCHOOL", "ADDRESS": "2200 Sharon Rd.\nMENLO PARK, CA 94025" }, "geometry": { "type": "Point", "coordinates": [ -122.20061990000001, 37.42863734 ] } },
{ "type": "Feature", "properties": { "OBJECTID": 152, "NAME": "SKYLINE COLLEGE", "ADDRESS": "3300 College Dr.\nSAN BRUNO, CA 94066" }, "geometry": { "type": "Point", "coordinates": [ -122.46122250000001, 37.63219941 ] } },
{ "type": "Feature", "properties": { "OBJECTID": 153, "NAME": "HOLY ANGELS ELEMENTARY SCHOOL", "ADDRESS": "20 Reiner St.\nCOLMA, CA 94014" }, "geometry": { "type": "Point", "coordinates": [ -122.4666831, 37.68633413 ] } },
{ "type": "Feature", "properties": { "OBJECTID": 154, "NAME": "NORTH HILLSBOROUGH ELEMENTARY SCHOOL", "ADDRESS": "545 Eucalyptus Ave.\nHILLSBOROUGH, CA 94010" }, "geometry": { "type": "Point", "coordinates": [ -122.3619224, 37.56912102 ] } },
{ "type": "Feature", "properties": { "OBJECTID": 155, "NAME": "SUSAN B. ANTHONY ELEMENTARY SCHOOL", "ADDRESS": "575 Abbot Ave.\nDALY CITY, CA 94014" }, "geometry": { "type": "Point", "coordinates": [ -122.4580959, 37.68880346 ] } },
{ "type": "Feature", "properties": { "OBJECTID": 156, "NAME": "EDISON-BRENTWOOD ELEMENTARY", "ADDRESS": "2086 Clarke St.\nEAST PALO ALTO, CA 94303" }, "geometry": { "type": "Point", "coordinates": [ -122.1346032, 37.46226102 ] } },
{ "type": "Feature", "properties": { "OBJECTID": 157, "NAME": "THE ODYSSEY SCHOOL FOR THE GIFTED", "ADDRESS": "201 Polhemus Rd.\nSAN MATEO, CA 94402" }, "geometry": { "type": "Point", "coordinates": [ -122.3498462, 37.53413982 ] } },
{ "type": "Feature", "properties": { "OBJECTID": 158, "NAME": "MENLO-ATHERTON HIGH SCHOOL", "ADDRESS": "555 Middlefield Rd.\nATHERTON, CA 94027" }, "geometry": { "type": "Point", "coordinates": [ -122.1767648, 37.46106157 ] } },
{ "type": "Feature", "properties": { "OBJECTID": 159, "NAME": "KIDS CONNECTION ELEMENTARY SCHOOL", "ADDRESS": "1998 Beach Park Blvd.\nFOSTER CITY, CA 94404" }, "geometry": { "type": "Point", "coordinates": [ -122.2653361, 37.56936079 ] } },
{ "type": "Feature", "properties": { "OBJECTID": 160, "NAME": "THE GERMAN-AMERICAN INTERNATIONAL SCHOOL", "ADDRESS": "275 Elliott Dr.\nMENLO PARK, CA 94025" }, "geometry": { "type": "Point", "coordinates": [ -122.1494154, 37.45982993 ] } },
{ "type": "Feature", "properties": { "OBJECTID": 161, "NAME": "MID-PENINSULA HIGH SCHOOL", "ADDRESS": "1340 Willow Road\nMENLO PARK, CA 94025" }, "geometry": { "type": "Point", "coordinates": [ -122.15260240000001, 37.47621961 ] } },
{ "type": "Feature", "properties": { "OBJECTID": 162, "NAME": "CESAR CHAVEZ ACADEMY MIDDLE SCHOOL", "ADDRESS": "2450 Ralmar St.\nEAST PALO ALTO, CA 94303" }, "geometry": { "type": "Point", "coordinates": [ -122.1470384, 37.47384553 ] } },
{ "type": "Feature", "properties": { "OBJECTID": 163, "NAME": "BELLE AIR ELEMENTARY SCHOOL", "ADDRESS": "450 3rd Ave\nSAN BRUNO, CA 94066" }, "geometry": { "type": "Point", "coordinates": [ -122.4062607, 37.62493857 ] } },
{ "type": "Feature", "properties": { "OBJECTID": 164, "NAME": "MEADOWS ELEMENTARY SCHOOL", "ADDRESS": "1101 Helen Dr.\nMILLBRAE, CA 94030" }, "geometry": { "type": "Point", "coordinates": [ -122.4180109, 37.60182103 ] } },
{ "type": "Feature", "properties": { "OBJECTID": 165, "NAME": "WHERRY ACADEMY", "ADDRESS": "452 Fifth Avenue\nREDWOOD CITY, CA 94063" }, "geometry": { "type": "Point", "coordinates": [ -122.2036821, 37.47333593 ] } },
{ "type": "Feature", "properties": { "OBJECTID": 166, "NAME": "EAST PALO ALTO ACADEMY", "ADDRESS": "475 Pope St.\nMENLO PARK, CA 94025" }, "geometry": { "type": "Point", "coordinates": [ -122.1563669, 37.46048195 ] } },
{ "type": "Feature", "properties": { "OBJECTID": 167, "NAME": "PILARCITOS ALTERNATIVE HIGH", "ADDRESS": "498 Kelly Ave.\nHALF MOON BAY, CA 94019" }, "geometry": { "type": "Point", "coordinates": [ -122.4342901, 37.46404635 ] } },
{ "type": "Feature", "properties": { "OBJECTID": 168, "NAME": "SAN CARLOS CHARTER LEARNING CENTER", "ADDRESS": "750 Dartmouth Ave.\nSAN CARLOS, CA 94070" }, "geometry": { "type": "Point", "coordinates": [ -122.2850814, 37.50789388 ] } },
{ "type": "Feature", "properties": { "OBJECTID": 169, "NAME": "SAINT VERONICA ELEMENTARY SCHOOL", "ADDRESS": "434 Alida Way\nSOUTH SAN FRANCISCO, CA 94080" }, "geometry": { "type": "Point", "coordinates": [ -122.43012830000001, 37.64602805 ] } },
{ "type": "Feature", "properties": { "OBJECTID": 170, "NAME": "MARGARET PAULINE BROWN ELEMENTARY SCHOOL", "ADDRESS": "305 Eastmoor Ave.\nDALY CITY, CA 94015" }, "geometry": { "type": "Point", "coordinates": [ -122.4766339, 37.68469239 ] } },
{ "type": "Feature", "properties": { "OBJECTID": 171, "NAME": "MCKINLEY INSTITUTE OF TECHNOLOGY", "ADDRESS": "400 Duane St.\nREDWOOD CITY, CA 94062" }, "geometry": { "type": "Point", "coordinates": [ -122.2360201, 37.48204679 ] } },
{ "type": "Feature", "properties": { "OBJECTID": 172, "NAME": "ADELANTE SPANISH IMMERSION SCHOOL", "ADDRESS": "3150 Granger Way\nREDWOOD CITY, CA 94063" }, "geometry": { "type": "Point", "coordinates": [ -122.2435011, 37.45426538 ] } },
{ "type": "Feature", "properties": { "OBJECTID": 174, "NAME": "BELLE HAVEN ELEMENTARY SCHOOL", "ADDRESS": "415 Ivy Dr.\nMENLO PARK, CA 94025" }, "geometry": { "type": "Point", "coordinates": [ -122.160771, 37.47594609 ] } },
{ "type": "Feature", "properties": { "OBJECTID": 175, "NAME": "SAINT PIUS ELEMENTARY SCHOOL", "ADDRESS": "1100 Woodside Rd.\nREDWOOD CITY, CA 94061" }, "geometry": { "type": "Point", "coordinates": [ -122.2256111, 37.4611033 ] } },
{ "type": "Feature", "properties": { "OBJECTID": 176, "NAME": "NOTRE DAME de NAMUR UNIVERSITY", "ADDRESS": "1500 Ralston Avenue\nBELMONT, CA 94002" }, "geometry": { "type": "Point", "coordinates": [ -122.2835685, 37.51535127 ] } },
{ "type": "Feature", "properties": { "OBJECTID": 177, "NAME": "TRINITY EPISCOPAL ELEMENTARY SCHOOL", "ADDRESS": "2650 Sand Hill Rd.\nMENLO PARK, CA 94025" }, "geometry": { "type": "Point", "coordinates": [ -122.2076375, 37.42093439 ] } },
{ "type": "Feature", "properties": { "OBJECTID": 178, "NAME": "COLLEGE PARK ELEMENTARY SCHOOL", "ADDRESS": "715 Indian Avenue\nSAN MATEO, CA 94401" }, "geometry": { "type": "Point", "coordinates": [ -122.3277816, 37.57562701 ] } },
{ "type": "Feature", "properties": { "OBJECTID": 179, "NAME": "HILLSIDE CHRISTIAN ACADEMY", "ADDRESS": "1415 Hillside Blvd.\nSOUTH SAN FRANCISCO, CA 94080" }, "geometry": { "type": "Point", "coordinates": [ -122.4245431, 37.66810828 ] } },
{ "type": "Feature", "properties": { "OBJECTID": 180, "NAME": "PARKSIDE ELEMENTARY SCHOOL", "ADDRESS": "1685 Eisenhower St.\nSAN MATEO, CA 94402" }, "geometry": { "type": "Point", "coordinates": [ -122.2969498, 37.56039421 ] } },
{ "type": "Feature", "properties": { "OBJECTID": 181, "NAME": "ROY CLOUD ELEMENTARY SCHOOL", "ADDRESS": "3790 Red Oak Way\nREDWOOD CITY, CA 94061" }, "geometry": { "type": "Point", "coordinates": [ -122.2562263, 37.45860495 ] } },
{ "type": "Feature", "properties": { "OBJECTID": 182, "NAME": "BRITTAN ACRES ELEMENTARY SCHOOL", "ADDRESS": "2000 Belle Ave.\nSAN CARLOS, CA 94070" }, "geometry": { "type": "Point", "coordinates": [ -122.2637466, 37.49631126 ] } },
{ "type": "Feature", "properties": { "OBJECTID": 183, "NAME": "ASPIRE EPA CHARTER SCHOOL", "ADDRESS": "1286 Runnymede St.\nEAST PALO ALTO, CA 94303" }, "geometry": { "type": "Point", "coordinates": [ -122.127281, 37.4686651 ] } },
{ "type": "Feature", "properties": { "OBJECTID": 184, "NAME": "WOODSIDE HIGH SCHOOL", "ADDRESS": "199 Churchill Ave\nWOODSIDE, CA 94062" }, "geometry": { "type": "Point", "coordinates": [ -122.23059480000001, 37.44261141 ] } },
{ "type": "Feature", "properties": { "OBJECTID": 185, "NAME": "NORTH STAR ACADEMY ELEMENTARY SCHOOL", "ADDRESS": "400 Duane St.\nREDWOOD CITY, CA 94062" }, "geometry": { "type": "Point", "coordinates": [ -122.2360201, 37.48204679 ] } },
{ "type": "Feature", "properties": { "OBJECTID": 186, "NAME": "CAPUCHINO HIGH SCHOOL", "ADDRESS": "1501 Magnolia Dr.\nSAN BRUNO, CA 94066" }, "geometry": { "type": "Point", "coordinates": [ -122.4039713, 37.61014186 ] } },
{ "type": "Feature", "properties": { "OBJECTID": 187, "NAME": "ENCINAL ELEMENTARY SCHOOL", "ADDRESS": "195 Encinal Ave.\nATHERTON, CA 94027" }, "geometry": { "type": "Point", "coordinates": [ -122.1850418, 37.46468184 ] } },
{ "type": "Feature", "properties": { "OBJECTID": 188, "NAME": "PHILLIPS BROOKS ELEMENTARY SCHOOL", "ADDRESS": "2245 Avy Ave\nMENLO PARK, CA 94025" }, "geometry": { "type": "Point", "coordinates": [ -122.20519950000001, 37.4291378 ] } },
{ "type": "Feature", "properties": { "OBJECTID": 189, "NAME": "SPRING VALLEY ELEMENTARY SCHOOL", "ADDRESS": "817 Murchison Dr.\nMILLBRAE, CA 94030" }, "geometry": { "type": "Point", "coordinates": [ -122.3905585, 37.5921326 ] } },
{ "type": "Feature", "properties": { "OBJECTID": 190, "NAME": "PENINSULA SCHOOL LTD.", "ADDRESS": "920 Peninsula Way\nMENLO PARK, CA 94025" }, "geometry": { "type": "Point", "coordinates": [ -122.16610850000001, 37.46561762 ] } },
{ "type": "Feature", "properties": { "OBJECTID": 191, "NAME": "LAS LOMITAS ELEMENTARY SCHOOL", "ADDRESS": "299 Alameda de Las Pulgas\nATHERTON, CA 94027" }, "geometry": { "type": "Point", "coordinates": [ -122.2121582, 37.43698949 ] } },
{ "type": "Feature", "properties": { "OBJECTID": 192, "NAME": "CORTE MADERA MIDDLE SCHOOL", "ADDRESS": "4575 Alpine Road.\nPORTOLA VALLEY, CA 94028" }, "geometry": { "type": "Point", "coordinates": [ -122.2115434, 37.36932379 ] } },
{ "type": "Feature", "properties": { "OBJECTID": 194, "NAME": "MENLO COLLEGE", "ADDRESS": "1000 El Camino Real\nATHERTON, CA 94027" }, "geometry": { "type": "Point", "coordinates": [ -122.1908651, 37.45736191 ] } },
{ "type": "Feature", "properties": { "OBJECTID": 195, "NAME": "NOTRE DAME HIGH SCHOOL", "ADDRESS": "1540 Ralston Ave.\nBELMONT, CA 94002" }, "geometry": { "type": "Point", "coordinates": [ -122.2856537, 37.5146598 ] } },
{ "type": "Feature", "properties": { "OBJECTID": 196, "NAME": "tHE NUEVA SCHOOL", "ADDRESS": "6565 Skyline Boulevard\nHILLSBOROUGH, CA 94010" }, "geometry": { "type": "Point", "coordinates": [ -122.3832256, 37.5610396 ] } },
{ "type": "Feature", "properties": { "OBJECTID": 197, "NAME": "COSTANO ELEMENTARY SCHOOL", "ADDRESS": "2695 Fordham St.\nEAST PALO ALTO, CA 94303" }, "geometry": { "type": "Point", "coordinates": [ -122.1368895, 37.47837108 ] } },
{ "type": "Feature", "properties": { "OBJECTID": 198, "NAME": "FORTY-NINERS ACADEMY SCHOOL", "ADDRESS": "2695 Fordham St.\nEAST PALO ALTO, CA 94303" }, "geometry": { "type": "Point", "coordinates": [ -122.1368895, 37.47837108 ] } },
{ "type": "Feature", "properties": { "OBJECTID": 199, "NAME": "SANDPIPER ELEMENTARY SCHOOL", "ADDRESS": "801 Redwood Shores Pkwy.\nREDWOOD CITY, CA 94065" }, "geometry": { "type": "Point", "coordinates": [ -122.2348817, 37.53777969 ] } },
{ "type": "Feature", "properties": { "OBJECTID": 200, "NAME": "ROGER WILLIAMS ACADEMY", "ADDRESS": "600 grand Ave.\nSOUTH SAN FRANCISCO, CA 94080" }, "geometry": { "type": "Point", "coordinates": [ -122.4195797, 37.6573226 ] } },
{ "type": "Feature", "properties": { "OBJECTID": 201, "NAME": "SPRUCE ELEMENTARY SCHOOL", "ADDRESS": "501 Spruce Ave.\nSOUTH SAN FRANCISCO, CA 94080" }, "geometry": { "type": "Point", "coordinates": [ -122.4154065, 37.65837984 ] } },
{ "type": "Feature", "properties": { "OBJECTID": 202, "NAME": "WILKINSON SCHOOL", "ADDRESS": "750 Avenue Alhambra.\nHALF MOON BAY, CA 94019" }, "geometry": { "type": "Point", "coordinates": [ -122.4727297, 37.50302164 ] } },
{ "type": "Feature", "properties": { "OBJECTID": 203, "NAME": "SAINT CHARLES SCHOOL", "ADDRESS": "880 Tamarack Ave.\nSAN CARLOS, CA 94070" }, "geometry": { "type": "Point", "coordinates": [ -122.2659525, 37.49546533 ] } },
{ "type": "Feature", "properties": { "OBJECTID": 204, "NAME": "CUNHA INTERMEDIATE SCHOOL", "ADDRESS": "600 Church St.\nHALF MOON BAY, CA 94019" }, "geometry": { "type": "Point", "coordinates": [ -122.4313052, 37.46275329 ] } },
{ "type": "Feature", "properties": { "OBJECTID": 205, "NAME": "CAADA COLLEGE", "ADDRESS": "4200 Farm Hill Blvd.\nREDWOOD CITY, CA 94061" }, "geometry": { "type": "Point", "coordinates": [ -122.2603814, 37.44743494 ] } },
{ "type": "Feature", "properties": { "OBJECTID": 206, "NAME": "TERRA LINDA MIDDLE SCHOOL", "ADDRESS": "750 Dartmouth Ave.\nSAN CARLOS, CA 94070" }, "geometry": { "type": "Point", "coordinates": [ -122.2850814, 37.50789388 ] } },
{ "type": "Feature", "properties": { "OBJECTID": 207, "NAME": "ALTA LOMA MIDDLE SCHOOL", "ADDRESS": "116 Romney Ave.\nSOUTH SAN FRANCISCO, CA 94080" }, "geometry": { "type": "Point", "coordinates": [ -122.4506499, 37.66060296 ] } },
{ "type": "Feature", "properties": { "OBJECTID": 208, "NAME": "HILLVIEW MIDDLE SCHOOL", "ADDRESS": "1100 Elder Ave.\nMENLO PARK, CA 94025" }, "geometry": { "type": "Point", "coordinates": [ -122.195445, 37.43857463 ] } },
{ "type": "Feature", "properties": { "OBJECTID": 209, "NAME": "HALF MOON BAY HIGH SCHOOL", "ADDRESS": "Lewis Foster Dr.\nHalf Moon Bay, CA 94019" }, "geometry": { "type": "Point", "coordinates": [ -122.4319728, 37.46962678 ] } },
{ "type": "Feature", "properties": { "OBJECTID": 210, "NAME": "ALL SOULS SCHOOL", "ADDRESS": "479 Miller Ave.\nSOUTH SAN FRANCISCO, CA 94080" }, "geometry": { "type": "Point", "coordinates": [ -122.41507540000001, 37.65726014 ] } },
{ "type": "Feature", "properties": { "OBJECTID": 211, "NAME": "SERENDIPITY ELEMENTARY SCHOOL", "ADDRESS": "2820 Ponce Ave.\nBELMONT, CA 94002" }, "geometry": { "type": "Point", "coordinates": [ -122.3038133, 37.51478879 ] } },
{ "type": "Feature", "properties": { "OBJECTID": 212, "NAME": "RUSSELL BEDE SCHOOL", "ADDRESS": "446 Turner Terr.\nSAN MATEO, CA 94401" }, "geometry": { "type": "Point", "coordinates": [ -122.3343426, 37.57208851 ] } },
{ "type": "Feature", "properties": { "OBJECTID": 213, "NAME": "BRISBANE ELEMENTARY SCHOOL", "ADDRESS": "500 San Bruno Ave.\nBRISBANE, CA 94005" }, "geometry": { "type": "Point", "coordinates": [ -122.39913850000001, 37.68088369 ] } },
{ "type": "Feature", "properties": { "OBJECTID": 214, "NAME": "FAIR OAKS ELEMENTARY SCHOOL", "ADDRESS": "2950 Fair Oaks Ave.\nREDWOOD CITY, CA 94063" }, "geometry": { "type": "Point", "coordinates": [ -122.204765, 37.4795376 ] } },
{ "type": "Feature", "properties": { "OBJECTID": 215, "NAME": "HAWES ELEMENTARY SCHOOL", "ADDRESS": "909 Roosevelt Ave.\nREDWOOD CITY, CA 94063" }, "geometry": { "type": "Point", "coordinates": [ -122.2328354, 37.4732683 ] } },
{ "type": "Feature", "properties": { "OBJECTID": 216, "NAME": "GARFIELD ELEMENTARY CHARTER SCHOOL", "ADDRESS": "3600 Middlefield Rd.\nMENLO PARK, CA 94025" }, "geometry": { "type": "Point", "coordinates": [ -122.1994046, 37.47008328 ] } },
{ "type": "Feature", "properties": { "OBJECTID": 217, "NAME": "SAINT JOSEPHS ELEMENTARY SCHOOL", "ADDRESS": "150 Valparaiso Avenue\nATHERTON, CA 94027" }, "geometry": { "type": "Point", "coordinates": [ -122.1934499, 37.44899742 ] } },
{ "type": "Feature", "properties": { "OBJECTID": 218, "NAME": "SAINT RAYMOND ELEMENTARY SCHOOL", "ADDRESS": "1211 Arbor Rd.\nMENLO PARK, CA 94025" }, "geometry": { "type": "Point", "coordinates": [ -122.1900611, 37.44795323 ] } },
{ "type": "Feature", "properties": { "OBJECTID": 219, "NAME": "ROOSEVELT ELEMENTARY SCHOOL", "ADDRESS": "2223 Vera Ave.\nREDWOOD CITY, CA 94062" }, "geometry": { "type": "Point", "coordinates": [ -122.2447347, 37.46685976 ] } },
{ "type": "Feature", "properties": { "OBJECTID": 220, "NAME": "ALVIN S. HATCH ELEMENTARY SCHOOL", "ADDRESS": "490 Miramontes Ave.\nHALF MOON BAY, CA 94019" }, "geometry": { "type": "Point", "coordinates": [ -122.4362134, 37.46322314 ] } },
{ "type": "Feature", "properties": { "OBJECTID": 221, "NAME": "LAUREL ELEMENTARY SCHOOL", "ADDRESS": "95 Edge Rd.\nATHERTON, CA 94027" }, "geometry": { "type": "Point", "coordinates": [ -122.171032, 37.46592667 ] } },
{ "type": "Feature", "properties": { "OBJECTID": 222, "NAME": "WILLOW OAKS ELEMENTARY SCHOOL", "ADDRESS": "620 Willow Rd.\nMENLO PARK, CA 94025" }, "geometry": { "type": "Point", "coordinates": [ -122.15879320000001, 37.46281312 ] } },
{ "type": "Feature", "properties": { "OBJECTID": 223, "NAME": "OAK KNOLL ELEMENTARY SCHOOL", "ADDRESS": "1895 Oak Knoll Ln.\nMENLO PARK, CA 94025" }, "geometry": { "type": "Point", "coordinates": [ -122.1925436, 37.43083882 ] } },
{ "type": "Feature", "properties": { "OBJECTID": 224, "NAME": "ORMONDALE ELEMENTARY SCHOOL", "ADDRESS": "200 Shawnee Pass\nPORTOLA VALLEY, CA 94028" }, "geometry": { "type": "Point", "coordinates": [ -122.2180347, 37.38173335 ] } },
{ "type": "Feature", "properties": { "OBJECTID": 225, "NAME": "LA HONDA ELEMENTARY SCHOOL", "ADDRESS": "450 Sears Ranch Road\nLA HONDA UNINC, CA 94020" }, "geometry": { "type": "Point", "coordinates": [ -122.279465, 37.32470538 ] } },
{ "type": "Feature", "properties": { "OBJECTID": 229, "NAME": "GREEN HILLS ELEMENTARY SCHOOL", "ADDRESS": "401 Ludeman Ln.\nMILLBRAE, CA 94030" }, "geometry": { "type": "Point", "coordinates": [ -122.4052688, 37.60561199 ] } },
{ "type": "Feature", "properties": { "OBJECTID": 230, "NAME": "WOODSIDE ELEMENTARY SCHOOL", "ADDRESS": "3195 Woodside Rd.\nWOODSIDE, CA 94062" }, "geometry": { "type": "Point", "coordinates": [ -122.2592832, 37.42808196 ] } },
{ "type": "Feature", "properties": { "OBJECTID": 231, "NAME": "REDWOOD HIGH SCHOOL", "ADDRESS": "1968 Old Country Rd.\nRedwood, CA 94063" }, "geometry": { "type": "Point", "coordinates": [ -122.2430184, 37.49333326 ] } },
{ "type": "Feature", "properties": { "OBJECTID": 232, "NAME": "KINGS MOUNTAIN ELEMENTARY SCHOOL", "ADDRESS": "211 Swett Road\nWOODSIDE, CA 94062" }, "geometry": { "type": "Point", "coordinates": [ -122.3223537, 37.41844853 ] } },
{ "type": "Feature", "properties": { "OBJECTID": 233, "NAME": "WOODLAND ELEMENTARY SCHOOL", "ADDRESS": "360 La Cuesta Dr.\nPORTOLAVALLEY, CA 94028" }, "geometry": { "type": "Point", "coordinates": [ -122.1964459, 37.40205006 ] } },
{ "type": "Feature", "properties": { "OBJECTID": 234, "NAME": "SELBY LANE ELEMENTARY SCHOOL", "ADDRESS": "170 Selby Ln.\nATHERTON, CA 94027" }, "geometry": { "type": "Point", "coordinates": [ -122.2190057, 37.45821845 ] } },
{ "type": "Feature", "properties": { "OBJECTID": 235, "NAME": "PORTOLA ELEMENTARY SCHOOL", "ADDRESS": "300 Amador Ave.\nSAN BRUNO, CA 94066" }, "geometry": { "type": "Point", "coordinates": [ -122.45251380000001, 37.6240377 ] } },
{ "type": "Feature", "properties": { "OBJECTID": 236, "NAME": "JOHN GILL ELEMENTARY SCHOOL", "ADDRESS": "555 Avenue del Ora\nREDWOOD CITY, CA 94062" }, "geometry": { "type": "Point", "coordinates": [ -122.241643, 37.47377927 ] } },
{ "type": "Feature", "properties": { "OBJECTID": 237, "NAME": "LIPMAN MIDDLE SCHOOL", "ADDRESS": "1 Solano St.\nBRISBANE, CA 94005" }, "geometry": { "type": "Point", "coordinates": [ -122.4049556, 37.6852743 ] } },
{ "type": "Feature", "properties": { "OBJECTID": 238, "NAME": "MILLS HIGH SCHOOL", "ADDRESS": "400 Murchison Dr.\nMILLBRAE, CA 94030" }, "geometry": { "type": "Point", "coordinates": [ -122.3886745, 37.5935888 ] } }
]
}
